City,Lat,Lng,Max Temp,Humidity,Cloudiness,Wind Speed,Country,Date
Tosya,41.0155,34.0401,33.82,83,38,2.73,TR,1673196029
Punta Arenas,-53.15,-70.9167,57.31,54,0,11.5,CL,1673196030
Umluj,25.0213,37.2685,71.89,51,100,6.13,SA,1673196031
Mar del Plata,-38.0023,-57.5575,85.82,80,20,21.0,AR,1673196033
Albany,42.6001,-73.9662,30.63,67,2,3.09,US,1673196034
Oga,46.4631,10.347,34.34,98,100,5.1,IT,1673196036
Vaini,-21.2,-175.2,75.36,100,75,0.0,TO,1673196037
Pevek,69.7008,170.3133,-30.12,99,38,4.38,RU,1673196038
Rikitea,-23.1203,-134.9692,77.85,76,18,18.01,PF,1673195965
Swan Hill,-35.3378,143.5544,76.37,26,63,6.4,AU,1673196041
Ust'-Karsk,52.7011,118.8077,-17.14,100,87,2.77,RU,1673196042
Geraldton,-28.7667,114.6,68.41,83,0,13.8,AU,1673196043
Barrow,71.2906,-156.7887,-2.18,78,100,14.97,US,1673196045
Souillac,-20.5167,57.5167,79.18,78,40,8.05,MU,1673196046
Kholm-Zhirkovskiy,55.5189,33.4731,3.97,94,15,5.73,RU,1673196047
Kruisfontein,-34.0033,24.7314,73.9,61,74,11.59,ZA,1673196049
Goundam,16.4145,-3.6708,84.88,12,83,14.74,ML,1673196050
Zelenoborskiy,66.845,32.3622,-5.03,96,57,4.56,RU,1673196051
North Platte,41.1239,-100.7654,21.09,73,0,4.61,US,1673196053
Bethel,41.3712,-73.414,37.54,59,0,8.05,US,1673196054
Camacha,33.0833,-16.3333,65.62,77,40,10.36,PT,1673196055
Ushuaia,-54.8,-68.3,65.86,34,20,5.75,AR,1673196057
Torbay,47.6666,-52.7314,32.58,81,75,9.22,CA,1673196058
Namatanai,-3.6667,152.4333,78.69,83,95,4.92,PG,1673196059
Komarikhinskiy,58.0979,57.1163,-19.17,100,100,3.49,RU,1673196061
Puerto Ayora,-0.7393,-90.3518,80.56,92,15,3.0,EC,1673196010
Khandyga,62.6667,135.6,-40.22,96,90,2.91,RU,1673196063
Erenhot,43.6475,111.9767,21.0,59,100,5.48,CN,1673196065
Ilulissat,69.2167,-51.1,3.22,66,0,4.61,GL,1673196067
Hermanus,-34.4187,19.2345,75.79,76,1,12.33,ZA,1673196068
New Norfolk,-42.7826,147.0587,60.3,67,2,3.02,AU,1673196069
Port Alfred,-33.5906,26.891,74.17,76,80,7.0,ZA,1673196071
Cherskiy,68.75,161.3,-37.95,100,99,5.86,RU,1673196072
Miyako,39.6367,141.9525,33.75,74,74,5.19,JP,1673196073
Dikson,73.5069,80.5464,-30.32,93,25,12.19,RU,1673196075
Tuktoyaktuk,69.4541,-133.0374,-2.2,84,75,4.61,CA,1673196076
Leticia,-4.2153,-69.9406,75.25,100,100,3.44,CO,1673196078
Necochea,-38.5473,-58.7368,86.49,39,0,10.22,AR,1673196079
Codrington,-38.2667,141.9667,61.07,94,3,10.2,AU,1673196081
Nizhniy Tsasuchey,50.5167,115.1333,-4.25,96,6,3.6,RU,1673196082
Mayna,54.1135,47.6231,-17.27,99,97,6.58,RU,1673196083
Miraflores,19.2167,-98.8083,66.97,33,0,3.89,MX,1673196085
Boa Vista,2.8197,-60.6733,84.18,65,75,4.61,BR,1673196086
Ribeira Grande,38.5167,-28.7,64.8,94,75,13.8,PT,1673196087
Burlington,39.8835,-74.6413,41.85,56,0,6.91,US,1673195997
Lebu,-37.6167,-73.65,66.87,70,3,9.31,CL,1673196090
Hobart,-42.8794,147.3294,60.66,88,2,8.05,AU,1673195826
Zabul Province,32.25,67.25,34.88,100,100,2.62,AF,1673196092
Keningau,5.3378,116.1602,71.37,99,100,1.16,MY,1673196094
La Spezia,44.1105,9.8434,59.0,91,100,5.99,IT,1673196095
Rock Sound,24.9,-76.2,75.33,78,86,16.6,BS,1673196096
Atuona,-9.8,-139.0333,78.33,73,2,15.35,PF,1673196098
Mandalgovi,45.7625,106.2708,14.86,63,0,4.74,MN,1673196099
Yulara,-25.2406,130.9889,69.84,55,100,19.55,AU,1673196100
Kununurra,-15.7667,128.7333,76.98,88,61,1.14,AU,1673196102
Atbasar,51.8,68.3333,-12.98,94,95,13.51,KZ,1673196103
Kavieng,-2.5744,150.7967,81.55,77,76,9.73,PG,1673196104
Dingle,10.9995,122.6711,72.81,91,100,8.52,PH,1673196106
Jega,12.2175,4.3792,87.13,12,16,8.99,NG,1673196107
Cape Town,-33.9258,18.4232,73.81,75,0,23.02,ZA,1673195932
Fortuna,40.5982,-124.1573,50.34,94,40,10.36,US,1673196109
Nola,40.922,14.5329,59.41,89,53,4.92,IT,1673196111
Bredasdorp,-34.5322,20.0403,71.85,71,0,10.31,ZA,1673196112
Mataura,-46.1927,168.8643,48.11,92,0,2.73,NZ,1673196113
Ponta do Sol,32.6667,-17.1,70.0,79,74,7.27,PT,1673196115
Port Hedland,-20.3167,118.5667,80.65,83,75,10.36,AU,1673196116
Busselton,-33.65,115.3333,58.96,84,0,13.51,AU,1673196117
Avarua,-21.2078,-159.775,73.45,94,75,6.91,CK,1673195901
Saint Paul Harbor,57.79,-152.4072,27.91,74,40,11.5,US,1673196120
Carnarvon,-24.8667,113.6333,74.68,73,0,24.83,AU,1673196121
Arraial do Cabo,-22.9661,-42.0278,73.36,94,75,8.05,BR,1673196122
Simao,22.7886,100.9748,48.81,75,0,2.59,CN,1673196125
George Town,5.4112,100.3354,80.53,87,20,3.44,MY,1673196127
Alta Floresta,-9.8756,-56.0861,73.49,94,100,1.5,BR,1673196129
Qandala,11.472,49.8728,76.3,77,6,9.22,SO,1673196130
Aklavik,68.2191,-135.0107,-13.09,98,100,1.68,CA,1673196131
Molepolole,-24.4066,25.4951,77.14,35,58,8.99,BW,1673196133
Mahébourg,-20.4081,57.7,79.25,78,40,8.05,MU,1673196134
Lubyany,56.0378,51.4,-28.19,99,22,4.74,RU,1673196135
Kapaa,22.0752,-159.319,66.18,88,0,8.05,US,1673196137
Tual,-5.6667,132.75,82.89,77,100,13.51,ID,1673196138
Qaanaaq,77.484,-69.3632,-15.45,96,99,4.34,GL,1673196139
Bluff,-46.6,168.3333,53.46,82,0,4.74,NZ,1673196141
Mount Gambier,-37.8333,140.7667,57.96,95,11,7.63,AU,1673196142
Mount Isa,-20.7333,139.5,78.57,83,40,9.22,AU,1673196143
São João da Barra,-21.6403,-41.0511,75.29,86,99,10.63,BR,1673196145
Ust-Tsilma,65.441,52.1498,-33.97,100,78,2.77,RU,1673196146
Kpandu,6.9954,0.2931,85.82,32,27,2.86,GH,1673196148
East London,-33.0153,27.9116,74.34,73,0,18.41,ZA,1673196149
Cairns,-16.9167,145.7667,80.06,97,100,8.05,AU,1673196150
Dunmore Town,25.5,-76.65,73.29,77,97,15.14,BS,1673196151
Saskylakh,71.9167,114.0833,-35.95,100,100,2.51,RU,1673196153
Bridlington,54.0831,-0.1919,44.89,77,100,21.52,GB,1673196154
Morro Bay,35.3658,-120.8499,55.33,94,100,5.01,US,1673196155
Tai’an,36.1853,117.12,39.74,43,2,5.59,CN,1673196157
Sumkino,58.1108,68.3244,-16.53,92,100,11.92,RU,1673196158
Stawell,-37.05,142.7667,67.17,47,3,6.53,AU,1673196159
Chui,-33.6971,-53.4616,78.82,52,2,14.85,UY,1673196161
Salalah,17.0151,54.0924,77.09,69,40,5.75,OM,1673196162
Nizhniy Kuranakh,58.8353,125.4869,-3.1,97,100,4.45,RU,1673196163
Galesong,-5.3166,119.3661,77.02,80,96,5.79,ID,1673196165
Hilo,19.7297,-155.09,79.29,72,75,6.91,US,1673196166
Monte Plata,18.807,-69.784,83.01,82,58,8.19,DO,1673196167
Buraidah,26.326,43.975,59.45,52,100,8.93,SA,1673196169
Acaraú,-2.8856,-40.12,87.89,54,70,17.83,BR,1673196170
Zemetchino,53.4973,42.6163,2.91,96,99,5.93,RU,1673196171
Lixouri,38.2019,20.4314,59.0,77,20,0.0,GR,1673196171
Beroroha,-21.6667,45.1667,76.39,89,99,2.3,MG,1673196174
Butaritari,3.0707,172.7902,80.11,80,39,10.85,KI,1673196175
Khatanga,71.9667,102.5,-56.15,100,68,3.85,RU,1673196176
Longyearbyen,78.2186,15.6401,24.64,63,40,10.36,SJ,1673196074
Tuatapere,-46.1333,167.6833,54.7,85,0,2.77,NZ,1673196179
Tumut,-35.3,148.2167,60.42,61,12,3.65,AU,1673196180
Yellowknife,62.456,-114.3525,-8.39,100,98,5.28,CA,1673196005
Altay,47.8667,88.1167,30.16,88,99,3.18,CN,1673196182
Phang Nga,8.4509,98.5298,77.04,92,84,4.27,TH,1673196184
Jamestown,42.097,-79.2353,30.02,68,100,5.99,US,1673196185
Castro,-24.7911,-50.0119,72.36,64,47,6.2,BR,1673196187
Asău,46.4333,26.4,34.72,97,94,3.87,RO,1673196188
Hofn,64.2539,-15.2082,39.22,60,20,23.02,IS,1673196190
Tasiilaq,65.6145,-37.6368,15.96,51,73,6.33,GL,1673196191
Norman Wells,65.282,-126.8329,-2.16,78,75,8.05,CA,1673196192
Chokurdakh,70.6333,147.9167,-16.11,98,100,5.99,RU,1673196194
Tatarskaya Kargala,51.9495,55.1731,-21.98,99,100,3.58,RU,1673196195
Quatre Cocos,-20.2078,57.7625,79.09,75,13,12.37,MU,1673196196
Nuuk,64.1835,-51.7216,27.21,80,100,10.36,GL,1673195923
Lavrentiya,65.5833,-171.0,-7.24,96,19,5.12,RU,1673196199
Várzea da Palma,-17.5981,-44.7308,76.48,78,99,1.97,BR,1673196200
Sancti Spíritus,21.9297,-79.4425,84.74,50,19,11.07,CU,1673196202
Nikolskoye,59.7035,30.7861,5.81,82,45,8.52,RU,1673196203
Cidreira,-30.1811,-50.2056,74.82,72,0,14.76,BR,1673196204
Upernavik,72.7868,-56.1549,-16.01,95,81,10.07,GL,1673196206
Cururupu,-1.8283,-44.8683,87.1,56,77,7.7,BR,1673196207
Rawson,-43.3002,-65.1023,95.09,26,98,21.9,AR,1673196056
Lüderitz,-26.6481,15.1594,67.39,73,0,4.76,NA,1673196210
Banda Aceh,5.5577,95.3222,77.34,81,88,5.91,ID,1673196211
Lázaro Cárdenas,17.9583,-102.2,82.04,59,0,3.44,MX,1673196212
Khorramshahr,30.4397,48.1664,60.75,63,40,2.3,IR,1673196214
Tabou,4.423,-7.3528,84.42,65,16,9.84,CI,1673196215
Meridian,43.6121,-116.3915,43.65,66,100,14.97,US,1673196017
Bikin,46.8161,134.26,2.66,97,100,1.77,RU,1673196217
Saint-Augustin,51.226,-58.6502,11.75,70,23,14.29,CA,1673196219
Riedlingen,48.1545,9.4756,44.13,94,100,2.06,DE,1673196220
Houston,29.7633,-95.3633,62.19,75,40,9.22,US,1673195945
Mubi,10.2676,13.2644,77.27,16,100,6.87,NG,1673196222
São Félix do Xingu,-6.6447,-51.995,88.21,55,31,2.1,BR,1673196224
Paamiut,61.994,-49.6678,26.92,71,100,12.48,GL,1673196225
Keuruu,62.2667,24.7,15.8,94,100,13.98,FI,1673196226
Lata,40.1629,-8.3327,59.92,98,100,7.56,PT,1673196228
Mossamedes,-15.1961,12.1522,73.45,70,100,8.79,AO,1673196229
Praia da Vitória,38.7333,-27.0667,66.45,77,75,8.1,PT,1673196230
Nantucket,41.2835,-70.0995,35.65,77,84,7.18,US,1673196232
Olafsvik,64.8945,-23.7142,33.94,74,100,37.33,IS,1673196233
Dzerzhinsk,56.2389,43.4631,-16.78,76,0,0.0,RU,1673196234
Pastos Bons,-6.6017,-44.0767,89.85,49,36,1.95,BR,1673196236
Saint George,37.1041,-113.5841,42.26,81,0,3.44,US,1673196124
Half Moon Bay,37.4636,-122.4286,57.74,86,40,8.05,US,1673196238
Pangnirtung,66.1451,-65.7125,-10.5,71,72,4.79,CA,1673196239
Sangar,63.9242,127.4739,-18.8,95,100,7.83,RU,1673196241
Minna,9.6139,6.5569,94.71,10,0,8.05,NG,1673196242
Kasongo-Lunda,-6.4667,16.8167,70.34,93,100,1.48,CD,1673196244
Ancud,-41.8697,-73.8203,64.11,76,70,9.46,CL,1673196245
Bengkulu,-3.8004,102.2655,74.84,90,100,5.55,ID,1673196246
Carutapera,-1.195,-46.02,84.16,69,77,8.77,BR,1673196248
Hong Kong,22.2855,114.1577,66.33,74,100,8.01,HK,1673196234
Bafra,41.5678,35.9069,39.25,91,100,4.12,TR,1673196250
Husavik,66.0449,-17.3389,34.74,99,100,13.2,IS,1673196252
Wasilla,61.5814,-149.4394,2.48,81,0,3.44,US,1673195990
Esperance,-33.8667,121.9,59.72,87,0,8.28,AU,1673196254
Talnakh,69.4865,88.3972,-23.8,97,100,11.77,RU,1673196255
Alexandria,31.2156,29.9553,60.76,77,40,10.36,EG,1673196253
Altamont,42.2068,-121.7372,36.9,91,100,18.41,US,1673196258
Skole,49.0372,23.5135,40.46,89,99,5.32,UA,1673196259
Tiksi,71.6872,128.8694,-42.23,100,92,1.61,RU,1673196261
Guerrero Negro,27.9769,-114.0611,64.22,52,15,6.62,MX,1673196262
Marawi,7.9986,124.2928,65.97,97,99,1.97,PH,1673196263
Narsaq,60.9167,-46.05,14.22,71,100,8.48,GL,1673196265
Shache,38.4167,77.2406,30.31,33,100,0.85,CN,1673196266
Port Elizabeth,-33.918,25.5701,74.32,74,20,16.11,ZA,1673196005
Comodoro Rivadavia,-45.8667,-67.5,80.46,34,0,14.97,AR,1673196269
Ixtapa,20.7,-105.2,85.26,21,0,3.58,MX,1673196270
Yuzhno-Kurilsk,44.0306,145.8556,22.84,71,17,4.45,RU,1673196271
Villazón,-22.0866,-65.5942,57.31,50,72,10.25,BO,1673196272
Maun,-19.9833,23.4167,85.96,42,40,13.8,BW,1673196072
Los Llanos de Aridane,28.6585,-17.9182,66.13,66,20,6.91,ES,1673196275
Chapais,49.7834,-74.8492,10.18,90,100,10.96,CA,1673196276
Adrar,20.5022,-10.0711,73.31,11,99,13.96,MR,1673196277
Katangli,51.7102,143.2326,-1.88,94,100,4.56,RU,1673196279
San Cristobal,7.7669,-72.225,73.58,56,46,4.74,VE,1673196280
Muzaffarabad,34.37,73.4711,53.44,85,100,5.44,PK,1673196281
Kisangani,0.5167,25.2,77.88,43,100,2.89,CD,1673196283
Haines Junction,60.7522,-137.5108,13.39,98,100,1.28,CA,1673196284
Champerico,14.3,-91.9167,88.34,60,0,5.55,GT,1673196285
Biak,-0.9131,122.8766,77.32,73,100,5.28,ID,1673196287
Pisco,-13.7,-76.2167,68.05,88,100,10.36,PE,1673196288
San Fernando del Valle de Catamarca,-28.4696,-65.7852,87.06,37,87,7.0,AR,1673196289
Sibu,2.3,111.8167,71.91,100,40,5.01,MY,1673196215
Coyhaique,-45.5752,-72.0662,72.21,60,75,4.61,CL,1673196292
Amga,60.8953,131.9608,-16.01,100,100,1.19,RU,1673196293
Ogembo,-0.7984,34.7253,63.28,76,82,3.31,KE,1673196294
Abu Dhabi,24.4667,54.3667,69.91,67,0,4.61,AE,1673196135
Alofi,-19.0595,-169.9187,78.69,94,100,10.36,NU,1673196247
Yarim,14.298,44.3779,52.95,78,77,2.15,YE,1673196298
Isangel,-19.55,169.2667,81.1,89,100,22.39,VU,1673196299
Aného,6.2333,1.6,88.0,70,64,12.26,TG,1673196301
Sitka,57.0531,-135.33,40.89,75,20,4.61,US,1673196302
Kahului,20.8947,-156.47,69.82,83,100,0.0,US,1673196304
Saint-Philippe,-21.3585,55.7679,81.99,80,47,13.09,RE,1673196305
Moose Factory,51.2585,-80.6094,24.8,86,100,10.36,CA,1673196307
Hitchin,51.9531,-0.2652,46.26,92,75,11.5,GB,1673196309
Tezu,27.9167,96.1667,58.98,41,0,4.27,IN,1673196268
Carauari,-4.8828,-66.8958,73.67,98,100,1.07,BR,1673196312
Ambilobe,-13.2,49.05,75.92,88,86,2.8,MG,1673196313
San Patricio,28.017,-97.5169,64.17,72,100,9.82,US,1673196315
Saint-Joseph,-21.3667,55.6167,80.98,79,40,11.03,RE,1673196316
Xifeng,42.7372,124.7222,9.09,89,70,3.44,CN,1673196318
Massakory,12.996,15.7293,79.16,12,81,9.17,TD,1673196319
Gaza,31.5,34.4667,60.87,66,6,3.4,PS,1673196320
Sarakhs,36.5449,61.1577,45.21,64,3,6.78,IR,1673196322
Ishigaki,24.3448,124.1572,68.13,68,75,11.5,JP,1673196323
Fort Nelson,58.8053,-122.7002,0.99,85,75,2.3,CA,1673196099
İdil,37.3411,41.8895,39.13,87,40,6.91,TR,1673196325
Ranong,9.9658,98.6348,73.58,86,45,4.43,TH,1673196327
Airai,-8.9266,125.4092,59.14,91,73,1.43,TL,1673196328
Mokrous,51.2333,47.5167,2.68,91,98,10.13,RU,1673196329
The Valley,18.217,-63.0578,82.54,74,20,13.8,AI,1673196331
Thompson,55.7435,-97.8558,10.56,92,75,6.91,CA,1673196225
Hasaki,35.7333,140.8333,41.22,60,98,6.11,JP,1673196333
Namwala,-15.7504,26.4384,66.49,97,99,6.64,ZM,1673196335
Olinda,-8.0089,-34.8553,83.93,61,75,10.36,BR,1673196336
Gravelbourg,49.8834,-106.5512,16.07,82,87,6.08,CA,1673196337
Gaziantep,37.0594,37.3825,35.53,81,0,3.44,TR,1673196339
Rio Grande,-32.035,-52.0986,82.51,60,29,16.58,BR,1673196304
Brekstad,63.687,9.6654,47.01,65,0,16.11,NO,1673196341
Krasnosel'kup,65.7,82.4667,-42.48,100,52,3.15,RU,1673196342
Plouzané,48.3833,-4.6167,48.25,74,0,18.41,FR,1673196344
Weligama,5.9667,80.4167,75.13,87,9,4.16,LK,1673196345
Vao,-22.6667,167.4833,78.15,83,80,22.48,NC,1673196346
Flinders,-34.5833,150.8552,60.19,85,2,3.0,AU,1673196348
Belchertown,42.277,-72.4009,35.67,66,3,2.46,US,1673196349
Samoded,63.6083,40.5111,-10.35,100,95,2.86,RU,1673196350
Port Hawkesbury,45.6169,-61.3485,27.59,80,100,25.99,CA,1673196352
Sokoni,-6.4333,39.55,84.06,79,19,11.95,TZ,1673196353
Richards Bay,-28.783,32.0377,69.58,78,7,6.55,ZA,1673196354
Sikeston,36.8767,-89.5879,42.91,75,100,6.91,US,1673196356
Maningrida,-12.0667,134.2667,78.4,87,82,8.08,AU,1673196357
Safaga,26.7292,33.9365,66.92,49,68,4.68,EG,1673196358
Pacifica,37.6138,-122.4869,57.56,85,75,8.05,US,1673196360
Waddān,29.1614,16.139,60.08,52,34,10.27,LY,1673196361
Rincon,32.296,-81.2354,63.91,47,75,0.0,US,1673196363
Touros,-5.1989,-35.4608,84.24,64,92,12.84,BR,1673196364
Bose,45.4612,8.0137,43.16,94,100,1.79,IT,1673196366
Xining,36.6167,101.7667,28.58,22,91,1.5,CN,1673196367
Sampit,-2.5333,112.95,74.16,97,99,2.37,ID,1673196369
San Jose,37.3394,-121.895,56.73,88,40,5.75,US,1673196370
Brooks,50.5834,-111.8851,21.18,86,100,8.05,CA,1673196333
Kabanjahe,3.1001,98.4908,61.21,96,100,2.17,ID,1673196373
Río Gallegos,-51.6226,-69.2181,80.65,28,75,25.32,AR,1673196098
Saint-François,46.4154,3.9054,49.44,91,97,2.3,FR,1673196376
Skibotn,69.3913,20.2679,16.95,86,100,26.6,NO,1673196377
Kaeo,-35.1,173.7833,66.33,94,67,11.7,NZ,1673196379
Mareeba,-17.0,145.4333,75.43,95,84,1.59,AU,1673196380
Vila Velha,-20.3297,-40.2925,78.75,87,20,14.97,BR,1673196382
Leningradskiy,69.3833,178.4167,-21.89,97,86,3.47,RU,1673196383
Tarko-Sale,64.9225,77.785,-34.73,99,16,7.56,RU,1673196385
The Hammocks,25.6715,-80.4445,79.02,66,100,9.22,US,1673196386
Klaksvík,62.2266,-6.589,41.92,85,69,38.39,FO,1673196387
Vulcan,45.3833,23.2667,33.67,89,11,3.6,RO,1673196389
Hithadhoo,-0.6,73.0833,80.33,76,92,5.64,MV,1673196390
Kenora,49.8167,-94.4337,11.37,85,0,8.05,CA,1673196391
Xihe,31.6864,113.4659,52.11,44,0,2.19,CN,1673196393
Henties Bay,-22.116,14.2845,67.89,83,30,7.87,NA,1673196394
Bagenalstown,52.7003,-6.9618,42.67,89,84,7.94,IE,1673196395
Cabo San Lucas,22.8909,-109.9124,71.51,77,0,1.99,MX,1673196258
Harper,4.375,-7.7169,84.25,67,22,10.94,LR,1673196398
Meadow Lake,34.8014,-106.5436,49.14,36,27,2.51,US,1673196399
Leshukonskoye,64.8989,45.7622,-41.33,100,52,2.24,RU,1673196400
Coquimbo,-29.9533,-71.3436,69.53,73,20,16.11,CL,1673196402
Itanhém,-17.1664,-40.33,81.84,73,100,4.83,BR,1673196403
Miranda,3.2499,-76.2281,80.65,76,91,3.4,CO,1673196333
Wilmington,34.2257,-77.9447,59.0,65,75,6.91,US,1673196122
Brae,60.3964,-1.353,45.23,77,78,28.23,GB,1673196406
Sydney,-33.8679,151.2073,62.28,85,0,5.75,AU,1673196408
Beian,63.6559,9.5683,47.01,65,0,16.11,NO,1673196409
Diffa,13.3154,12.6113,74.35,16,46,8.72,NE,1673196410
Behbahān,30.5959,50.2417,53.46,59,55,4.0,IR,1673196412
Kolondiéba,11.0882,-6.8926,94.39,11,4,9.86,ML,1673196413
Beringovskiy,63.05,179.3167,23.59,96,100,13.78,RU,1673196414
Zhangaözen,43.3,52.8,18.39,52,25,7.63,KZ,1673196416
Beidao,34.5686,105.8933,40.05,55,22,2.08,CN,1673196417
Genhe,50.7833,121.5167,-22.88,100,96,1.05,CN,1673196418
Nyeri,-0.4201,36.9476,57.72,95,69,3.0,KE,1673196420
Chota,-6.55,-78.65,63.79,70,82,5.61,PE,1673196421
Uzunovo,54.5386,38.6173,4.35,92,100,3.42,RU,1673196422
Gurupá,-1.405,-51.64,88.21,54,98,3.13,BR,1673196424
Sur,22.5667,59.5289,70.9,71,0,2.95,OM,1673196426
Lagoa,39.05,-27.9833,60.37,93,57,18.54,PT,1673196427
Padang,-0.9492,100.3543,75.25,85,88,3.51,ID,1673196429
Portland,45.5234,-122.6762,48.42,94,100,10.36,US,1673196303
Teguise,29.0605,-13.564,64.62,77,20,14.97,ES,1673196431
Beni,0.5,29.4667,70.95,50,24,1.61,CD,1673196433
Vardø,70.3705,31.1107,24.78,63,100,34.52,NO,1673196434
Tateyama,34.9833,139.8667,52.14,66,71,6.22,JP,1673196436
Jardim,-21.4803,-56.1381,85.64,48,41,1.61,BR,1673196437
Severo-Kuril'sk,50.6789,156.125,24.75,70,90,17.47,RU,1673196438
Totness,5.8833,-56.3167,78.42,80,99,7.27,SR,1673196440
Kudahuvadhoo,2.6708,72.8944,80.24,81,46,16.62,MV,1673196441
Juiz de Fora,-21.7642,-43.3503,64.74,97,100,1.72,BR,1673196443
Vestmannaeyjar,63.4427,-20.2734,40.19,65,75,26.46,IS,1673196444
Kīhei,20.785,-156.4656,69.82,83,100,0.0,US,1673196445
Kusu,33.2831,131.1514,37.47,64,0,4.27,JP,1673196447
Choma,-16.8065,26.9531,61.93,97,100,5.93,ZM,1673196157
San Juan,-31.5375,-68.5364,94.12,22,10,14.85,AR,1673196256
Wawa,9.9022,4.4192,88.9,14,100,4.36,NG,1673196450
Sohag,26.557,31.6948,64.69,46,52,9.31,EG,1673196452
Tcholliré,8.4022,14.1698,82.44,15,19,4.74,CM,1673196453
Lower Hutt,-41.2167,174.9167,59.31,64,20,12.66,NZ,1673196454
Ukiah,39.1502,-123.2078,50.14,95,100,1.99,US,1673196456
Ugoofaaru,5.6667,73.0,81.03,75,6,8.28,MV,1673196457
Uruguaiana,-29.7547,-57.0883,89.53,40,0,8.05,BR,1673196315
Grand Gaube,-20.0064,57.6608,79.38,68,3,5.01,MU,1673196459
Toora-Khem,52.4675,96.11,-3.53,100,95,0.92,RU,1673196461
Fonte Boa,-2.4959,-66.2662,73.63,97,100,2.46,BR,1673196462
Xiaoyi,34.6178,109.703,44.78,34,8,3.22,CN,1673196463
Avera,33.194,-82.5271,62.11,50,100,4.81,US,1673196465
Clyde River,70.4692,-68.5914,-28.97,68,0,2.3,CA,1673196466
Ucluelet,48.9329,-125.5528,45.09,88,100,1.01,CA,1673196414
Kyzyl-Mazhalyk,51.1333,90.6,-4.68,96,94,1.14,RU,1673196468
Salamiyah,35.0113,37.0532,49.39,72,13,6.15,SY,1673196470
Cabo Rojo,18.0866,-67.1457,84.72,72,1,7.0,PR,1673196471
Kavaratti,10.5669,72.642,81.34,63,0,1.63,IN,1673196472
Pathein,16.7833,94.7333,70.25,91,25,6.85,MM,1673196474
Nome,64.5011,-165.4064,15.87,79,100,0.0,US,1673196475
Chernyshevskiy,63.0128,112.4714,-50.58,100,46,2.33,RU,1673196476
San Quintín,30.4833,-115.95,61.56,58,42,7.31,MX,1673196478
Agüimes,27.9054,-15.4461,67.66,64,20,15.01,ES,1673196479
Levelland,33.5873,-102.378,48.18,31,1,9.42,US,1673196480
Kristianstad,56.0313,14.1524,43.36,100,100,5.75,SE,1673196482
Tautira,-17.7333,-149.15,80.37,76,36,12.8,PF,1673196483
Victoria Point,-27.5833,153.3,73.9,77,92,3.0,AU,1673196485
Le Vauclin,14.5452,-60.8388,84.25,65,0,17.27,MQ,1673196486
Faanui,-16.4833,-151.75,80.83,75,68,10.6,PF,1673196487
Le Port,-20.9373,55.2919,82.4,69,40,7.16,RE,1673196489
Cayenne,4.9333,-52.3333,78.84,89,75,8.05,GF,1673196491
Uryupinsk,50.8047,42.0138,4.6,83,11,8.95,RU,1673196492
São Filipe,14.8961,-24.4956,74.68,65,0,8.79,CV,1673196494
Puquio,-14.7,-74.1333,60.26,57,69,8.12,PE,1673196495
Imbituba,-28.24,-48.6703,75.9,67,12,11.14,BR,1673196291
Ayagoz,47.9714,80.4392,32.29,83,100,15.26,KZ,1673196498
Belgrade,44.804,20.4651,48.38,73,0,8.05,RS,1673196499
Sinnamary,5.3833,-52.95,78.26,87,97,10.22,GF,1673196501
Laas,46.6166,10.7002,40.08,97,100,4.72,IT,1673196502
Beaufort,5.3473,115.7455,74.23,95,100,4.68,MY,1673196503
Āreka,7.0667,37.7,68.47,37,91,2.17,ET,1673196505
Atar,20.5169,-13.0499,77.07,10,100,16.8,MR,1673196506
Korla,41.7597,86.1469,26.04,42,6,3.65,CN,1673196507
Yilan,24.757,121.753,66.06,86,100,1.97,TW,1673196509
Randolph,35.7001,-79.8164,37.76,91,100,1.01,US,1673196510
Markova,48.6758,24.4138,35.58,95,71,3.11,UA,1673196512
Mocuba,-16.8392,36.9856,72.25,98,100,6.2,MZ,1673196513
Ballina,-28.8667,153.5667,67.01,99,89,7.34,AU,1673196514
Vejalpur,22.6833,73.5667,67.98,40,0,7.25,IN,1673196516
Bathsheba,13.2167,-59.5167,84.81,70,40,19.57,BB,1673196517
Litovko,49.2361,135.1742,-12.24,99,80,0.31,RU,1673196518
Brownwood,31.7093,-98.9912,53.96,46,0,6.15,US,1673196468
Béja,36.7256,9.1817,61.45,44,1,1.41,TN,1673196521
Maceió,-9.6658,-35.7353,89.04,51,20,12.66,BR,1673196226
Zyryanskoye,56.8306,86.6258,33.69,97,100,18.3,RU,1673196523
Supe,-10.8,-77.7333,74.39,69,47,10.8,PE,1673196524
Kamaishi,39.2667,141.8833,34.92,82,87,7.27,JP,1673196526
Zhireken,52.8249,117.3076,-16.2,100,63,1.63,RU,1673196527
Katsuura,35.1333,140.3,50.92,65,78,3.89,JP,1673196528
Bambous Virieux,-20.3428,57.7575,79.21,78,40,8.05,MU,1673196529
Sagana,-0.6667,37.2,64.58,86,53,2.19,KE,1673196531
Minot,48.2325,-101.2963,21.42,79,0,4.61,US,1673196345
Lompoc,34.6391,-120.4579,54.79,83,100,13.8,US,1673196509
Torbeyevo,54.0797,43.2473,-5.3,100,100,5.14,RU,1673196534
Domoni,-12.2569,44.5319,80.49,80,88,6.42,KM,1673196536
Junín,-34.5838,-60.9433,95.9,30,2,10.29,AR,1673196537
Plettenberg Bay,-34.0527,23.3716,72.01,70,28,7.16,ZA,1673196539
Buala,-8.145,159.5921,79.97,79,100,7.02,SB,1673196540
Esim,4.8699,-2.2405,83.07,72,49,10.58,GH,1673196541
Ilhabela,-23.7781,-45.3581,75.42,76,84,4.0,BR,1673196543
Tiznit Province,29.5833,-9.5,62.89,34,0,8.1,MA,1673196544
La Valette-du-Var,43.1374,5.9831,58.24,88,100,6.91,FR,1673196546
Chu,43.5983,73.7614,38.01,95,100,5.01,KZ,1673196259
Laureles,26.1092,-97.4941,71.58,94,100,12.66,US,1673196548
Alice Springs,-23.7,133.8833,62.15,100,100,17.27,AU,1673196550
Mahbūbābād,17.6167,80.0167,63.05,23,0,3.96,IN,1673196551
Vanimo,-2.6741,141.3028,77.45,89,100,0.58,PG,1673196553
Kandrian,-6.2167,149.55,78.08,86,100,2.57,PG,1673196554
Saldanha,-33.0117,17.9442,77.05,85,30,22.08,ZA,1673196555
Zhigansk,66.7697,123.3711,-17.39,97,100,13.98,RU,1673196557
Ziro,27.6333,93.8333,37.38,65,0,2.66,IN,1673196558
Corn Island,12.1694,-83.0418,79.68,76,28,15.86,NI,1673196559
Burnie,-41.0667,145.9167,55.71,92,19,4.88,AU,1673196561
Kissidougou,9.1848,-10.0999,92.93,15,47,8.79,GN,1673196562
Trairi,-3.2778,-39.2689,87.26,56,56,14.85,BR,1673196356
Bom Jesus,-9.0744,-44.3586,91.96,40,93,7.58,BR,1673196565
Umarga,17.8333,76.6167,66.16,19,0,9.89,IN,1673196566
Mae Sot,16.7167,98.5667,72.43,65,88,1.52,TH,1673196567
Ghanzi,-21.5667,21.7833,85.28,26,68,11.5,BW,1673196569
Saint-Leu,-21.15,55.2833,81.46,76,25,4.23,RE,1673196570
Malé,4.1748,73.5089,82.35,78,40,18.41,MV,1673196307
Egvekinot,66.3167,-179.1667,-6.66,89,58,9.53,RU,1673196572
Honningsvåg,70.9821,25.9704,20.95,79,75,29.93,NO,1673196574
Port Lincoln,-34.7333,135.8667,63.16,84,0,14.54,AU,1673196333
Mayor Pablo Lagerenza,-19.9309,-60.7718,101.1,20,3,5.3,PY,1673196576
Amurzet,47.6967,131.0981,7.21,96,100,4.07,RU,1673196577
Kawalu,-7.3817,108.2082,73.11,95,91,1.81,ID,1673196579
Mukhen,48.1,136.1,3.13,92,69,3.06,RU,1673196580
Bria,6.5423,21.9863,82.08,17,71,2.98,CF,1673196581
Hobyo,5.3505,48.5268,78.33,80,59,17.78,SO,1673196583
Teknāf,20.8624,92.3058,65.84,86,1,6.58,BD,1673196584
Dunedin,-45.8742,170.5036,51.64,89,16,10.63,NZ,1673196585
Provideniya,64.3833,-173.3,0.01,94,46,10.33,RU,1673196587
Coronado,32.6859,-117.1831,61.25,68,40,6.91,US,1673196588
Huanren,41.2647,125.3667,14.56,95,61,3.33,CN,1673196589
Kinsale,51.7075,-8.5306,42.17,93,75,14.97,IE,1673196591
Taligaman,8.9044,125.6558,71.28,98,100,2.01,PH,1673196592
Hambantota,6.1241,81.1185,77.14,75,14,16.46,LK,1673196593
Nanortalik,60.1432,-45.2371,27.61,79,100,8.41,GL,1673196595
Matagami,49.7502,-77.6328,12.31,85,100,12.66,CA,1673196596
Dzaoudzi,-12.7887,45.2699,82.29,78,100,4.61,YT,1673196597
Spornoye,50.8448,37.2913,7.32,89,2,1.5,RU,1673196599
Hondomachi-hondo,32.45,130.2,50.18,55,0,1.92,JP,1673196600
Riyadh,24.6877,46.7219,59.14,64,60,9.78,SA,1673196600
Zuwārah,32.9312,12.082,60.06,49,0,1.72,LY,1673196603
Berlevåg,70.8578,29.0864,19.4,69,100,30.53,NO,1673196604
Port Hardy,50.6996,-127.4199,41.18,93,75,12.66,CA,1673196606
Corinth,37.9407,22.9573,49.89,60,0,2.89,GR,1673196607
Usinsk,65.9939,57.5281,-35.37,100,35,4.94,RU,1673196609
Walvis Bay,-22.9575,14.5053,72.09,68,0,9.22,NA,1673196611
Arona,28.0996,-16.681,66.13,74,20,13.8,ES,1673196518
Wau,7.7029,27.9953,81.73,22,17,5.39,SS,1673196613
San Lorenzo,-25.3333,-57.5333,93.85,27,17,4.94,PY,1673196599
Mahon,39.8885,4.2658,61.36,94,40,20.71,ES,1673196616
Turukhansk,65.8167,87.9833,-36.53,94,15,6.2,RU,1673196617
Newport,51.5877,-2.9984,45.14,88,77,17.27,GB,1673196619
Kaduy,59.2,37.15,-17.37,97,6,3.98,RU,1673196620
Port-Gentil,-0.7193,8.7815,84.16,70,40,9.22,GA,1673196622
Itarema,-2.9248,-39.9167,87.94,54,65,16.22,BR,1673196623
Jalu,29.0331,21.5482,59.99,36,2,8.43,LY,1673196624
Collie,-33.3667,116.15,57.81,83,0,7.54,AU,1673196626
Idritsa,56.3316,28.8988,17.49,83,100,9.98,RU,1673196627
Kapit,2.0167,112.9333,73.6,100,100,1.88,MY,1673196628
Caconda,-13.7333,15.0667,63.75,85,98,6.13,AO,1673196630
Muros,42.7762,-9.0603,56.08,86,99,19.01,ES,1673196631
Tazovsky,67.4667,78.7,-15.39,98,99,11.43,RU,1673196632
Isla Mujeres,21.2311,-86.731,80.17,79,75,10.96,MX,1673196634
Trindade,-16.6494,-49.4889,78.55,90,100,6.73,BR,1673196635
Bahía Honda,22.9036,-83.1592,81.01,60,8,7.65,CU,1673196637
Kizhinga,51.8462,109.9097,-6.68,100,54,1.68,RU,1673196638
Guasdualito,7.2424,-70.7324,71.6,100,75,4.61,VE,1673196639
Labuhan,-6.8844,112.2051,77.18,87,80,8.79,ID,1673196641
Hamilton,39.1834,-84.5333,38.98,69,100,8.05,US,1673196573
Kutum,14.2,24.6667,67.66,16,36,8.16,SD,1673196643
Bubaque,11.2833,-15.8333,83.93,49,100,12.3,GW,1673196645
Stephenville,32.2207,-98.2023,53.15,42,0,8.05,US,1673196646
Bereda,43.2686,-7.5406,53.42,100,100,8.95,ES,1673196647
Teshie,5.5836,-0.1072,86.56,70,23,11.5,GH,1673196648
Kassala,15.451,36.4,79.41,26,0,9.17,SD,1673196650
São Geraldo do Araguaia,-6.4006,-48.555,83.73,75,88,0.92,BR,1673196651
Gbarnga,6.9956,-9.4722,96.67,16,2,3.89,LR,1673196652
Ntoum,0.3833,9.7833,79.77,82,90,4.72,GA,1673196654
Assiut,27.181,31.1837,62.78,44,3,8.05,EG,1673196375
Nālūt,30.3333,10.85,52.41,36,0,8.81,LY,1673196656
Presidencia Roque Sáenz Peña,-26.7852,-60.4388,98.08,15,38,5.53,AR,1673196657
Oranjestad,12.524,-70.027,84.15,70,40,18.41,AW,1673196659
Constitución,-35.3333,-72.4167,70.29,59,10,9.8,CL,1673196565
Fredericton,45.9454,-66.6656,23.83,58,0,9.22,CA,1673196602
Noumea,-22.2763,166.4572,80.01,99,90,17.38,NC,1673196662
Dhārchula,29.85,80.5333,53.85,25,20,7.65,IN,1673196664
Yumen,40.2833,97.2,27.54,28,38,7.74,CN,1673196665
Zhezkazgan,47.8043,67.7144,-0.11,94,46,7.96,KZ,1673196666
Hirara,24.8,125.2833,68.74,62,87,14.34,JP,1673196668
Ştefăneşti,44.8667,24.9333,41.49,89,5,5.35,RO,1673196669
Mizque,-17.941,-65.3402,74.19,47,76,9.82,BO,1673196671
Carballo,43.213,-8.691,55.09,91,100,10.71,ES,1673196672
Dondo,-19.6094,34.7431,72.91,86,100,5.95,MZ,1673196673
Bilma,18.6853,12.9164,69.22,17,2,11.45,NE,1673196675
Puerto Escondido,15.85,-97.0667,84.0,42,0,4.94,MX,1673196542
Zhangye,38.9342,100.4517,29.28,23,40,3.27,CN,1673196677
Luwuk,-0.9516,122.7875,78.12,76,100,4.9,ID,1673196679
Kerepehi,-37.3,175.5333,67.05,82,89,7.72,NZ,1673196680
Kindu,-2.95,25.95,72.84,89,99,2.68,CD,1673196681
Nkhata Bay,-11.6066,34.2907,75.36,79,90,3.85,MW,1673196683
Pacific Grove,36.6177,-121.9166,54.73,92,0,5.75,US,1673196684
Nuevitas,21.5453,-77.2644,82.47,56,4,13.58,CU,1673196685
Taber,49.8167,-112.1518,32.85,83,100,13.8,CA,1673196687
Marsá Maţrūḩ,31.3525,27.2453,57.4,77,40,11.5,EG,1673196688
Najrān,17.4924,44.1277,63.25,59,0,4.72,SA,1673196689
Hailey,43.5196,-114.3153,29.88,86,40,5.75,US,1673196691
Montenegro,42.5,19.3,48.07,76,20,4.61,ME,1673196692
Turbo,8.0937,-76.7269,82.53,78,39,2.15,CO,1673196693
Linhares,-19.3911,-40.0722,78.85,81,100,7.23,BR,1673196694
Wonthaggi,-38.6044,145.5913,60.82,67,0,5.12,AU,1673196696
La Ronge,55.1001,-105.2842,12.45,85,100,6.91,CA,1673196697
Pangody,65.85,74.4859,-30.41,100,76,7.07,RU,1673196698
Kamenka,51.3223,42.7678,4.77,95,31,8.75,RU,1673196700
Vanavara,60.34,102.2797,-5.64,99,100,3.96,RU,1673196701
Makkah al Mukarramah,21.4267,39.8261,73.09,62,67,6.22,SA,1673196521
Jieshi,22.8134,115.8257,63.93,66,98,12.68,CN,1673196703
General Pico,-35.6566,-63.7568,102.38,14,0,10.27,AR,1673196705
Impfondo,1.6381,18.0667,83.46,32,72,2.3,CG,1673196706
Esil,51.9556,66.4042,-17.86,97,97,10.83,KZ,1673196707
Province of Groningen,53.25,6.75,47.03,85,93,8.05,NL,1673196539
Fairbanks,64.8378,-147.7164,5.0,78,100,0.0,US,1673196694
Kabansk,52.0486,106.6528,7.57,87,12,5.48,RU,1673196711
Ahipara,-35.1667,173.1667,66.0,91,60,8.75,NZ,1673196712
Wanning,18.8003,110.3967,66.87,93,100,7.74,CN,1673196713
Mananjary,-21.2167,48.3333,79.29,81,37,10.2,MG,1673196715
Lagunas,-5.2269,-75.6753,88.93,47,80,5.37,PE,1673196716
Beira,-19.8436,34.8389,73.49,88,100,9.51,MZ,1673196717
Seoul,37.5683,126.9778,37.0,68,75,5.75,KR,1673196709
Coihueco,-36.6167,-71.8333,77.74,44,0,5.75,CL,1673196720
Askiz,53.1319,90.5264,13.55,88,100,5.3,RU,1673196721
Umm Hājar,13.2954,19.6966,80.35,12,98,8.79,TD,1673196723
Terney,45.0503,136.6092,16.45,71,100,7.49,RU,1673196724
Thunder Bay,48.4001,-89.3168,13.98,85,75,2.3,CA,1673196726
College,64.8569,-147.8028,4.98,78,100,0.0,US,1673196727
Kisumu,-0.1022,34.7617,74.44,61,68,3.22,KE,1673196628
Salinas,36.6777,-121.6555,55.15,89,0,5.75,US,1673196666
Cortez,37.3489,-108.5859,39.7,69,0,3.44,US,1673196730
Huarmey,-10.0681,-78.1522,74.28,72,55,9.66,PE,1673196732
Kazachinskoye,57.6953,93.2761,24.33,93,100,4.99,RU,1673196733
Mariehamn,60.0973,19.9348,37.26,93,100,18.41,AX,1673196735
Sørland,67.667,12.6934,39.06,67,100,24.02,NO,1673196736
Schladming,47.3929,13.687,36.39,89,97,5.44,AT,1673196737
Lagunillas,10.1301,-71.2595,83.55,67,99,7.72,VE,1673196739
Itoman,26.1247,127.6694,60.82,72,100,3.44,JP,1673196740
Bairiki Village,1.3292,172.9752,80.6,83,20,9.22,KI,1673196741
Utica,43.1009,-75.2327,29.73,84,2,5.79,US,1673196512
Denpasar,-8.65,115.2167,80.26,83,40,8.05,ID,1673196581
Cap Malheureux,-19.9842,57.6142,79.47,68,2,5.01,MU,1673196745
Maragogi,-9.0122,-35.2225,83.46,61,56,10.8,BR,1673196746
Manaus,-3.1019,-60.025,86.49,70,75,4.61,BR,1673196660
Iracemápolis,-22.5806,-47.5186,83.71,60,85,7.67,BR,1673196749
Santa Cruz de la Sierra,-17.8,-63.1667,91.45,46,40,5.75,BO,1673196705
Calamar,10.2511,-74.9146,91.02,46,1,7.94,CO,1673196751
Pierre,44.3683,-100.351,22.05,90,0,3.44,US,1673196697
Katsina,12.9894,7.6006,84.09,26,0,12.66,NG,1673196753
Chimbote,-9.0853,-78.5783,73.45,69,42,9.64,PE,1673196755
Vila Franca do Campo,37.7167,-25.4333,63.01,81,31,10.25,PT,1673196756
Shakawe,-18.3667,21.85,84.24,27,99,7.23,BW,1673196757
Nouakchott,18.0858,-15.9785,78.73,29,100,11.97,MR,1673196706
Callaway,30.153,-85.5699,69.91,58,0,8.05,US,1673196760
Zima,53.9202,102.0442,9.19,95,97,5.39,RU,1673196761
São José da Coroa Grande,-8.8978,-35.1478,83.32,62,65,10.56,BR,1673196763
Iracoubo,5.4802,-53.2011,78.17,88,87,9.91,GF,1673196764
Inhambane,-23.865,35.3833,73.38,88,75,9.22,MZ,1673196765
Deniliquin,-35.5333,144.9667,74.21,28,25,3.0,AU,1673196766
Hollins,37.3413,-79.9431,36.48,78,100,5.75,US,1673196768
San Ramon,37.7799,-121.978,56.28,89,75,6.91,US,1673196769
Verkhnyaya Inta,65.9811,60.3094,-33.48,99,58,5.26,RU,1673196770
